{
  "195.158.71.41": {
    "country": "Malta",
    "country_code": "MT",
    "city": "Sliema",
    "lat": 35.9159,
    "lon": 14.5049,
    "org": ""
  },
  "3.130.168.2": {
    "country": "United States",
    "country_code": "US",
    "city": "Dublin",
    "lat": 40.0992,
    "lon": -83.1141,
    "org": "AWS EC2 (us-east-2)"
  },
  "139.59.94.6": {
    "country": "India",
    "country_code": "IN",
    "city": "Bengaluru",
    "lat": 12.9753,
    "lon": 77.591,
    "org": "DigitalOcean, LLC"
  },
  "75.88.64.35": {
    "country": "United States",
    "country_code": "US",
    "city": "Newton",
    "lat": 41.6892,
    "lon": -93.0534,
    "org": "Windstream - Lincoln"
  },
  "174.129.147.245": {
    "country": "United States",
    "country_code": "US",
    "city": "Ashburn",
    "lat": 39.0438,
    "lon": -77.4874,
    "org": "AWS EC2 (us-east-1)"
  },
  "176.83.10.132": {
    "country": "Spain",
    "country_code": "ES",
    "city": "Canet de Mar",
    "lat": 41.5905,
    "lon": 2.58116,
    "org": "RIMA (Red IP Multi Acceso)"
  },
  "3.93.59.245": {
    "country": "United States",
    "country_code": "US",
    "city": "Ashburn",
    "lat": 39.0438,
    "lon": -77.4874,
    "org": "AWS EC2 (us-east-1)"
  },
  "34.203.197.241": {
    "country": "United States",
    "country_code": "US",
    "city": "Ashburn",
    "lat": 39.0438,
    "lon": -77.4874,
    "org": "AWS EC2 (us-east-1)"
  },
  "139.19.117.197": {
    "country": "Germany",
    "country_code": "DE",
    "city": "Saarbr\u00fccken",
    "lat": 49.2481,
    "lon": 6.9979,
    "org": "Mpii NET 117 Inet"
  },
  "159.65.22.130": {
    "country": "United Kingdom",
    "country_code": "GB",
    "city": "Slough",
    "lat": 51.5177,
    "lon": -0.6215,
    "org": "DigitalOcean, LLC"
  },
  "18.222.201.82": {
    "country": "United States",
    "country_code": "US",
    "city": "Dublin",
    "lat": 40.0992,
    "lon": -83.1141,
    "org": "AWS EC2 (us-east-2)"
  },
  "118.70.176.2": {
    "country": "Vietnam",
    "country_code": "VN",
    "city": "Hanoi",
    "lat": 21.0184,
    "lon": 105.8461,
    "org": ""
  },
  "165.22.60.231": {
    "country": "Singapore",
    "country_code": "SG",
    "city": "Singapore",
    "lat": 1.32123,
    "lon": 103.695,
    "org": "DigitalOcean, LLC"
  },
  "64.62.197.13": {
    "country": "United States",
    "country_code": "US",
    "city": "Pleasanton",
    "lat": 37.6951,
    "lon": -121.9,
    "org": "The Shadowserver Foundation, Inc"
  },
  "170.64.145.45": {
    "country": "Australia",
    "country_code": "AU",
    "city": "Sydney",
    "lat": -33.8978,
    "lon": 151.1899,
    "org": "DigitalOcean, LLC"
  },
  "18.218.118.203": {
    "country": "United States",
    "country_code": "US",
    "city": "Dublin",
    "lat": 40.0992,
    "lon": -83.1141,
    "org": "AWS EC2 (us-east-2)"
  },
  "66.240.223.240": {
    "country": "United States",
    "country_code": "US",
    "city": "San Diego",
    "lat": 32.8296,
    "lon": -117.134,
    "org": "CariNet, Inc."
  },
  "143.244.146.102": {
    "country": "United States",
    "country_code": "US",
    "city": "North Bergen",
    "lat": 40.7964,
    "lon": -74.0203,
    "org": "DigitalOcean, LLC"
  },
  "183.94.76.8": {
    "country": "China",
    "country_code": "CN",
    "city": "Wuhan",
    "lat": 30.5851,
    "lon": 114.2662,
    "org": ""
  },
  "18.97.5.38": {
    "country": "United States",
    "country_code": "US",
    "city": "Ashburn",
    "lat": 39.0438,
    "lon": -77.4874,
    "org": "AWS EC2 (us-east-1)"
  },
  "134.199.174.244": {
    "country": "Australia",
    "country_code": "AU",
    "city": "Sydney",
    "lat": -33.8978,
    "lon": 151.1899,
    "org": "DigitalOcean, LLC"
  },
  "112.51.27.82": {
    "country": "China",
    "country_code": "CN",
    "city": "Guangzhou",
    "lat": 23.1317,
    "lon": 113.266,
    "org": "China Mobile Communications Corporation"
  },
  "85.217.149.67": {
    "country": "Canada",
    "country_code": "CA",
    "city": "Beauharnois",
    "lat": 45.3161,
    "lon": -73.8736,
    "org": "Modat B.V"
  },
  "85.217.149.13": {
    "country": "Canada",
    "country_code": "CA",
    "city": "Beauharnois",
    "lat": 45.3161,
    "lon": -73.8736,
    "org": "Modat B.V"
  },
  "85.217.149.9": {
    "country": "Canada",
    "country_code": "CA",
    "city": "Beauharnois",
    "lat": 45.3161,
    "lon": -73.8736,
    "org": "Modat B.V"
  },
  "120.48.35.140": {
    "country": "China",
    "country_code": "CN",
    "city": "Beijing",
    "lat": 39.911,
    "lon": 116.395,
    "org": "Beijing Baidu Netcom Science and Technology Co., Ltd."
  },
  "13.222.29.88": {
    "country": "United States",
    "country_code": "US",
    "city": "Ashburn",
    "lat": 39.0438,
    "lon": -77.4874,
    "org": "AWS EC2 (us-east-1)"
  },
  "137.184.21.137": {
    "country": "United States",
    "country_code": "US",
    "city": "North Bergen",
    "lat": 40.7964,
    "lon": -74.0203,
    "org": "Digital Ocean"
  },
  "159.223.231.150": {
    "country": "Netherlands",
    "country_code": "NL",
    "city": "Amsterdam",
    "lat": 52.352,
    "lon": 4.9392,
    "org": "DigitalOcean, LLC"
  },
  "209.38.87.142": {
    "country": "Australia",
    "country_code": "AU",
    "city": "Sydney",
    "lat": -33.8978,
    "lon": 151.1899,
    "org": "DigitalOcean, LLC"
  },
  "134.199.166.92": {
    "country": "Australia",
    "country_code": "AU",
    "city": "Sydney",
    "lat": -33.8978,
    "lon": 151.1899,
    "org": "DigitalOcean, LLC"
  },
  "38.250.116.128": {
    "country": "Peru",
    "country_code": "PE",
    "city": "Ica",
    "lat": -14.0754,
    "lon": -75.7342,
    "org": "Yachay Telecomunicaciones SAC"
  },
  "67.205.181.251": {
    "country": "United States",
    "country_code": "US",
    "city": "North Bergen",
    "lat": 40.7964,
    "lon": -74.0203,
    "org": "Digital Ocean"
  },
  "135.237.126.220": {
    "country": "United States",
    "country_code": "US",
    "city": "Boydton",
    "lat": 36.677696,
    "lon": -78.37471,
    "org": "Microsoft Azure Cloud (eastus)"
  },
  "46.161.50.108": {
    "country": "Russia",
    "country_code": "RU",
    "city": "St Petersburg",
    "lat": 59.8761,
    "lon": 30.4339,
    "org": "PIN DC"
  },
  "185.247.137.223": {
    "country": "United Kingdom",
    "country_code": "GB",
    "city": "Manchester",
    "lat": 51.5081,
    "lon": -0.1278,
    "org": "Constantine Cybersecurity LTD"
  },
  "147.182.170.101": {
    "country": "United States",
    "country_code": "US",
    "city": "North Bergen",
    "lat": 40.7964,
    "lon": -74.0203,
    "org": "DigitalOcean, LLC"
  },
  "3.131.220.121": {
    "country": "United States",
    "country_code": "US",
    "city": "Dublin",
    "lat": 40.0992,
    "lon": -83.1141,
    "org": "AWS EC2 (us-east-2)"
  },
  "137.184.135.135": {
    "country": "United States",
    "country_code": "US",
    "city": "North Bergen",
    "lat": 40.7964,
    "lon": -74.0203,
    "org": "Digital Ocean"
  },
  "3.146.33.102": {
    "country": "United States",
    "country_code": "US",
    "city": "Dublin",
    "lat": 40.0992,
    "lon": -83.1141,
    "org": "AWS EC2 (us-east-2)"
  },
  "3.146.33.46": {
    "country": "United States",
    "country_code": "US",
    "city": "Dublin",
    "lat": 40.0992,
    "lon": -83.1141,
    "org": "AWS EC2 (us-east-2)"
  },
  "18.218.168.5": {
    "country": "United States",
    "country_code": "US",
    "city": "Dublin",
    "lat": 40.0992,
    "lon": -83.1141,
    "org": "AWS EC2 (us-east-2)"
  },
  "34.79.174.85": {
    "country": "Belgium",
    "country_code": "BE",
    "city": "Brussels",
    "lat": 50.9009,
    "lon": 4.4855,
    "org": "Google Cloud (europe-west1)"
  },
  "34.78.102.173": {
    "country": "Belgium",
    "country_code": "BE",
    "city": "Brussels",
    "lat": 50.9009,
    "lon": 4.4855,
    "org": "Google Cloud (europe-west1)"
  },
  "104.248.232.190": {
    "country": "United States",
    "country_code": "US",
    "city": "North Bergen",
    "lat": 40.7964,
    "lon": -74.0203,
    "org": "DigitalOcean, LLC"
  },
  "80.82.70.133": {
    "country": "The Netherlands",
    "country_code": "NL",
    "city": "Amsterdam",
    "lat": 52.3676,
    "lon": 4.90414,
    "org": "IP Volume inc"
  },
  "142.93.57.157": {
    "country": "United States",
    "country_code": "US",
    "city": "North Bergen",
    "lat": 40.7964,
    "lon": -74.0203,
    "org": "DigitalOcean, LLC"
  },
  "218.157.205.238": {
    "country": "South Korea",
    "country_code": "KR",
    "city": "Andong",
    "lat": 36.5555,
    "lon": 128.7515,
    "org": ""
  },
  "167.71.25.83": {
    "country": "United States",
    "country_code": "US",
    "city": "North Bergen",
    "lat": 40.7964,
    "lon": -74.0203,
    "org": "DigitalOcean, LLC"
  },
  "120.241.79.66": {
    "country": "China",
    "country_code": "CN",
    "city": "Guangzhou",
    "lat": 23.1317,
    "lon": 113.266,
    "org": "China Mobile"
  },
  "52.203.245.40": {
    "country": "United States",
    "country_code": "US",
    "city": "Ashburn",
    "lat": 39.0438,
    "lon": -77.4874,
    "org": "AWS EC2 (us-east-1)"
  },
  "45.84.107.54": {
    "country": "Sweden",
    "country_code": "SE",
    "city": "Sundbyberg",
    "lat": 59.3617,
    "lon": 17.967,
    "org": "R0CKET-CLOUD"
  },
  "209.38.92.130": {
    "country": "Australia",
    "country_code": "AU",
    "city": "Sydney",
    "lat": -33.8978,
    "lon": 151.1899,
    "org": "DigitalOcean, LLC"
  },
  "47.237.111.86": {
    "country": "Singapore",
    "country_code": "SG",
    "city": "Singapore",
    "lat": 1.35208,
    "lon": 103.82,
    "org": "Alibaba Cloud LLC"
  },
  "64.23.201.32": {
    "country": "United States",
    "country_code": "US",
    "city": "Santa Clara",
    "lat": 37.3931,
    "lon": -121.962,
    "org": "DigitalOcean, LLC"
  },
  "3.129.187.38": {
    "country": "United States",
    "country_code": "US",
    "city": "Dublin",
    "lat": 40.0992,
    "lon": -83.1141,
    "org": "AWS EC2 (us-east-2)"
  },
  "20.161.30.51": {
    "country": "United States",
    "country_code": "US",
    "city": "Boydton",
    "lat": 36.677696,
    "lon": -78.37471,
    "org": "Microsoft Azure Cloud (eastus2)"
  },
  "137.184.99.90": {
    "country": "United States",
    "country_code": "US",
    "city": "North Bergen",
    "lat": 40.7964,
    "lon": -74.0203,
    "org": "Digital Ocean"
  },
  "20.38.37.110": {
    "country": "United States",
    "country_code": "US",
    "city": "Phoenix",
    "lat": 33.448376,
    "lon": -112.074036,
    "org": "Microsoft Azure Cloud (westus3)"
  },
  "101.126.4.240": {
    "country": "China",
    "country_code": "CN",
    "city": "Chaowai",
    "lat": 39.9904,
    "lon": 116.386,
    "org": ""
  },
  "142.93.197.144": {
    "country": "United States",
    "country_code": "US",
    "city": "North Bergen",
    "lat": 40.7964,
    "lon": -74.0203,
    "org": "DigitalOcean, LLC"
  },
  "157.245.252.214": {
    "country": "United States",
    "country_code": "US",
    "city": "North Bergen",
    "lat": 40.7964,
    "lon": -74.0203,
    "org": "DigitalOcean, LLC"
  },
  "20.105.65.67": {
    "country": "Ireland",
    "country_code": "IE",
    "city": "Dublin",
    "lat": 53.3478,
    "lon": -6.2597,
    "org": "Microsoft Azure Cloud (northeurope)"
  },
  "147.182.213.28": {
    "country": "United States",
    "country_code": "US",
    "city": "North Bergen",
    "lat": 40.7964,
    "lon": -74.0203,
    "org": "DigitalOcean, LLC"
  },
  "18.215.169.92": {
    "country": "United States",
    "country_code": "US",
    "city": "Ashburn",
    "lat": 39.0438,
    "lon": -77.4874,
    "org": "AWS EC2 (us-east-1)"
  },
  "45.91.64.7": {
    "country": "Russia",
    "country_code": "RU",
    "city": "Moscow",
    "lat": 55.798,
    "lon": 37.4893,
    "org": "TopTeleCom LLC"
  },
  "3.144.245.14": {
    "country": "United States",
    "country_code": "US",
    "city": "Dublin",
    "lat": 40.0992,
    "lon": -83.1141,
    "org": "AWS EC2 (us-east-2)"
  },
  "192.241.132.206": {
    "country": "United States",
    "country_code": "US",
    "city": "North Bergen",
    "lat": 40.7964,
    "lon": -74.0203,
    "org": "Digital Ocean"
  },
  "192.81.212.98": {
    "country": "United States",
    "country_code": "US",
    "city": "North Bergen",
    "lat": 40.7964,
    "lon": -74.0203,
    "org": "Digital Ocean"
  },
  "142.93.198.105": {
    "country": "United States",
    "country_code": "US",
    "city": "North Bergen",
    "lat": 40.7964,
    "lon": -74.0203,
    "org": "DigitalOcean, LLC"
  },
  "1.13.102.102": {
    "country": "China",
    "country_code": "CN",
    "city": "Nanjing",
    "lat": 32.0589,
    "lon": 118.7738,
    "org": "Tencent cloud computing (Beijing) Co., Ltd."
  },
  "183.236.49.5": {
    "country": "China",
    "country_code": "CN",
    "city": "Guangzhou",
    "lat": 23.1317,
    "lon": 113.266,
    "org": "China Mobile Communications Corporation"
  },
  "13.222.129.81": {
    "country": "United States",
    "country_code": "US",
    "city": "Ashburn",
    "lat": 39.0438,
    "lon": -77.4874,
    "org": "AWS EC2 (us-east-1)"
  },
  "45.156.129.111": {
    "country": "United States",
    "country_code": "US",
    "city": "Chicago",
    "lat": 41.8781,
    "lon": -87.6298,
    "org": "Inap CHI"
  },
  "13.59.16.128": {
    "country": "United States",
    "country_code": "US",
    "city": "Dublin",
    "lat": 40.0992,
    "lon": -83.1141,
    "org": "AWS EC2 (us-east-2)"
  },
  "103.180.124.221": {
    "country": "Indonesia",
    "country_code": "ID",
    "city": "Palembang",
    "lat": -2.9972,
    "lon": 104.764,
    "org": ""
  },
  "211.200.98.61": {
    "country": "South Korea",
    "country_code": "KR",
    "city": "Seoul",
    "lat": 37.5656,
    "lon": 126.978,
    "org": "broadNnet"
  },
  "143.110.254.238": {
    "country": "India",
    "country_code": "IN",
    "city": "Bengaluru",
    "lat": 12.9753,
    "lon": 77.591,
    "org": "DigitalOcean, LLC"
  },
  "18.116.101.220": {
    "country": "United States",
    "country_code": "US",
    "city": "Dublin",
    "lat": 40.0992,
    "lon": -83.1141,
    "org": "AWS EC2 (us-east-2)"
  },
  "82.199.171.26": {
    "country": "Finland",
    "country_code": "FI",
    "city": "Helsinki",
    "lat": 60.1699,
    "lon": 24.9384,
    "org": "Alcom BB"
  },
  "205.210.31.221": {
    "country": "United States",
    "country_code": "US",
    "city": "Santa Clara",
    "lat": 37.3835,
    "lon": -121.983,
    "org": "Palo Alto Networks, Inc"
  },
  "159.65.219.252": {
    "country": "United States",
    "country_code": "US",
    "city": "North Bergen",
    "lat": 40.7964,
    "lon": -74.0203,
    "org": "DigitalOcean, LLC"
  },
  "139.0.12.92": {
    "country": "Indonesia",
    "country_code": "ID",
    "city": "Cipinang Cempedak",
    "lat": -6.2309,
    "lon": 106.8633,
    "org": ""
  },
  "101.168.21.147": {
    "country": "Australia",
    "country_code": "AU",
    "city": "Sydney",
    "lat": -33.8672,
    "lon": 151.1997,
    "org": "Telstra Corporation"
  },
  "13.222.168.56": {
    "country": "United States",
    "country_code": "US",
    "city": "Ashburn",
    "lat": 39.0438,
    "lon": -77.4874,
    "org": "AWS EC2 (us-east-1)"
  },
  "147.185.132.120": {
    "country": "United States",
    "country_code": "US",
    "city": "Santa Clara",
    "lat": 37.3833,
    "lon": -121.983,
    "org": "Palo Alto Networks, Inc"
  },
  "85.217.149.62": {
    "country": "Canada",
    "country_code": "CA",
    "city": "Beauharnois",
    "lat": 45.3161,
    "lon": -73.8736,
    "org": "Modat B.V"
  },
  "137.184.176.130": {
    "country": "United States",
    "country_code": "US",
    "city": "Santa Clara",
    "lat": 37.3931,
    "lon": -121.962,
    "org": "Digital Ocean"
  },
  "3.151.241.153": {
    "country": "United States",
    "country_code": "US",
    "city": "Dublin",
    "lat": 40.0992,
    "lon": -83.1141,
    "org": "AWS EC2 (us-east-2)"
  },
  "45.15.225.137": {
    "country": "Moldova",
    "country_code": "MD",
    "city": "Nisporeni",
    "lat": 47.0802,
    "lon": 28.171,
    "org": "Primanet SRL"
  },
  "118.193.69.177": {
    "country": "South Korea",
    "country_code": "KR",
    "city": "Seoul",
    "lat": 37.5658,
    "lon": 126.978,
    "org": "Ucloud Information Technology"
  },
  "137.184.135.133": {
    "country": "United States",
    "country_code": "US",
    "city": "North Bergen",
    "lat": 40.7964,
    "lon": -74.0203,
    "org": "Digital Ocean"
  },
  "64.23.229.21": {
    "country": "United States",
    "country_code": "US",
    "city": "Santa Clara",
    "lat": 37.3931,
    "lon": -121.962,
    "org": "DigitalOcean, LLC"
  },
  "3.17.72.122": {
    "country": "United States",
    "country_code": "US",
    "city": "Dublin",
    "lat": 40.0992,
    "lon": -83.1141,
    "org": "AWS EC2 (us-east-2)"
  },
  "115.190.229.144": {
    "country": "China",
    "country_code": "CN",
    "city": "Beijing",
    "lat": 39.9042,
    "lon": 116.407,
    "org": ""
  },
  "59.23.3.146": {
    "country": "South Korea",
    "country_code": "KR",
    "city": "Gumi",
    "lat": 36.1348,
    "lon": 128.4146,
    "org": "Kornet"
  },
  "18.204.231.208": {
    "country": "United States",
    "country_code": "US",
    "city": "Ashburn",
    "lat": 39.0438,
    "lon": -77.4874,
    "org": "AWS EC2 (us-east-1)"
  },
  "205.210.31.31": {
    "country": "United States",
    "country_code": "US",
    "city": "Santa Clara",
    "lat": 37.3835,
    "lon": -121.983,
    "org": "Palo Alto Networks, Inc"
  },
  "5.187.35.142": {
    "country": "The Netherlands",
    "country_code": "NL",
    "city": "Amsterdam",
    "lat": 52.3676,
    "lon": 4.90414,
    "org": "Amarutu Technology Ltd"
  },
  "203.55.81.1": {
    "country": "France",
    "country_code": "FR",
    "city": "Paris",
    "lat": 48.8709,
    "lon": 2.34263,
    "org": "MOJI"
  },
  "222.73.51.249": {
    "country": "China",
    "country_code": "CN",
    "city": "Shanghai",
    "lat": 31.2304,
    "lon": 121.474,
    "org": "Chinanet SH"
  },
  "14.18.41.55": {
    "country": "China",
    "country_code": "CN",
    "city": "Guangzhou",
    "lat": 23.1181,
    "lon": 113.2539,
    "org": "Chinanet GD"
  },
  "198.235.24.217": {
    "country": "United States",
    "country_code": "US",
    "city": "Santa Clara",
    "lat": 37.3833,
    "lon": -121.983,
    "org": "Palo Alto Networks, Inc"
  },
  "216.180.246.155": {
    "country": "France",
    "country_code": "FR",
    "city": "Massy",
    "lat": 48.7217,
    "lon": 2.28306,
    "org": ""
  },
  "35.216.254.237": {
    "country": "Switzerland",
    "country_code": "CH",
    "city": "Zurich",
    "lat": 47.3595,
    "lon": 8.6356,
    "org": "Google Cloud (europe-west6)"
  },
  "120.211.138.165": {
    "country": "China",
    "country_code": "CN",
    "city": "Shijiazhuang",
    "lat": 38.036,
    "lon": 114.4654,
    "org": "China Mobile"
  },
  "101.200.236.207": {
    "country": "China",
    "country_code": "CN",
    "city": "Beijing",
    "lat": 39.911,
    "lon": 116.395,
    "org": "Aliyun Computing Co., LTD"
  },
  "211.198.160.213": {
    "country": "South Korea",
    "country_code": "KR",
    "city": "Naju",
    "lat": 35.0357,
    "lon": 126.7811,
    "org": "Kornet"
  },
  "175.19.74.215": {
    "country": "China",
    "country_code": "CN",
    "city": "Jilin",
    "lat": 43.8378,
    "lon": 126.549,
    "org": ""
  },
  "113.200.72.199": {
    "country": "China",
    "country_code": "CN",
    "city": "Xi'an",
    "lat": 34.2635,
    "lon": 108.9246,
    "org": ""
  },
  "140.174.91.233": {
    "country": "United States",
    "country_code": "US",
    "city": "Jersey City",
    "lat": 40.7467,
    "lon": -74.0574,
    "org": "Honest Networks, LLC"
  },
  "52.70.205.193": {
    "country": "United States",
    "country_code": "US",
    "city": "Ashburn",
    "lat": 39.0438,
    "lon": -77.4874,
    "org": "AWS EC2 (us-east-1)"
  },
  "198.235.24.105": {
    "country": "United States",
    "country_code": "US",
    "city": "Santa Clara",
    "lat": 37.3833,
    "lon": -121.983,
    "org": "Palo Alto Networks, Inc"
  },
  "183.81.33.183": {
    "country": "Vietnam",
    "country_code": "VN",
    "city": "Ho Chi Minh City",
    "lat": 10.822,
    "lon": 106.6257,
    "org": "FPTDYNAMICIP"
  },
  "147.185.132.141": {
    "country": "United States",
    "country_code": "US",
    "city": "Santa Clara",
    "lat": 37.3833,
    "lon": -121.983,
    "org": "Palo Alto Networks, Inc"
  },
  "107.191.43.243": {
    "country": "United States",
    "country_code": "US",
    "city": "Piscataway",
    "lat": 40.5511,
    "lon": -74.4606,
    "org": "Vultr Holdings, LLC"
  },
  "85.217.149.38": {
    "country": "Canada",
    "country_code": "CA",
    "city": "Beauharnois",
    "lat": 45.3161,
    "lon": -73.8736,
    "org": "Modat B.V"
  },
  "106.13.109.25": {
    "country": "China",
    "country_code": "CN",
    "city": "Beijing",
    "lat": 39.9042,
    "lon": 116.407,
    "org": "Beijing Baidu Netcom Science and Technology Co., Ltd."
  },
  "171.231.194.176": {
    "country": "Vietnam",
    "country_code": "VN",
    "city": "Hanoi",
    "lat": 21.0278,
    "lon": 105.834,
    "org": "VIETEL"
  },
  "18.191.69.170": {
    "country": "United States",
    "country_code": "US",
    "city": "Dublin",
    "lat": 40.0992,
    "lon": -83.1141,
    "org": "AWS EC2 (us-east-2)"
  },
  "171.231.190.202": {
    "country": "Vietnam",
    "country_code": "VN",
    "city": "Hanoi",
    "lat": 21.0278,
    "lon": 105.834,
    "org": "VIETEL"
  },
  "44.220.185.161": {
    "country": "United States",
    "country_code": "US",
    "city": "Ashburn",
    "lat": 39.0438,
    "lon": -77.4874,
    "org": "AWS EC2 (us-east-1)"
  },
  "42.112.130.227": {
    "country": "Vietnam",
    "country_code": "VN",
    "city": "Ho Chi Minh City",
    "lat": 10.822,
    "lon": 106.6257,
    "org": ""
  },
  "185.226.197.43": {
    "country": "The Netherlands",
    "country_code": "NL",
    "city": "Amsterdam",
    "lat": 52.3676,
    "lon": 4.90414,
    "org": "ICG 4 ZEN AMS"
  },
  "185.226.197.45": {
    "country": "The Netherlands",
    "country_code": "NL",
    "city": "Amsterdam",
    "lat": 52.3676,
    "lon": 4.90414,
    "org": "ICG 4 ZEN AMS"
  },
  "123.139.116.70": {
    "country": "China",
    "country_code": "CN",
    "city": "Xi'an",
    "lat": 34.2635,
    "lon": 108.9246,
    "org": ""
  },
  "8.134.159.4": {
    "country": "China",
    "country_code": "CN",
    "city": "Guangzhou",
    "lat": 23.1181,
    "lon": 113.2539,
    "org": "Alibaba.com LLC"
  },
  "3.19.14.190": {
    "country": "United States",
    "country_code": "US",
    "city": "Dublin",
    "lat": 40.0992,
    "lon": -83.1141,
    "org": "AWS EC2 (us-east-2)"
  },
  "172.202.118.40": {
    "country": "United States",
    "country_code": "US",
    "city": "Des Moines",
    "lat": 41.5908,
    "lon": -93.6208,
    "org": "Microsoft Azure Cloud (centralus)"
  },
  "110.185.106.161": {
    "country": "China",
    "country_code": "CN",
    "city": "Chengdu",
    "lat": 30.6509,
    "lon": 104.076,
    "org": "Chinanet SC"
  },
  "18.212.83.63": {
    "country": "United States",
    "country_code": "US",
    "city": "Ashburn",
    "lat": 39.0438,
    "lon": -77.4874,
    "org": "AWS EC2 (us-east-1)"
  },
  "205.210.31.181": {
    "country": "United States",
    "country_code": "US",
    "city": "Santa Clara",
    "lat": 37.3835,
    "lon": -121.983,
    "org": "Palo Alto Networks, Inc"
  },
  "68.5.83.165": {
    "country": "United States",
    "country_code": "US",
    "city": "Aliso Viejo",
    "lat": 33.5679,
    "lon": -117.7046,
    "org": "Cox Communications Inc"
  },
  "101.201.104.216": {
    "country": "China",
    "country_code": "CN",
    "city": "Beijing",
    "lat": 39.911,
    "lon": 116.395,
    "org": "Aliyun Computing Co., LTD"
  },
  "100.30.2.93": {
    "country": "United States",
    "country_code": "US",
    "city": "Ashburn",
    "lat": 39.0438,
    "lon": -77.4874,
    "org": "AWS EC2 (us-east-1)"
  },
  "44.242.70.81": {
    "country": "United States",
    "country_code": "US",
    "city": "Portland",
    "lat": 45.5235,
    "lon": -122.676,
    "org": "AWS EC2 (us-west-2)"
  },
  "192.241.179.235": {
    "country": "United States",
    "country_code": "US",
    "city": "Secaucus",
    "lat": 40.7876,
    "lon": -74.06,
    "org": "Digital Ocean"
  }
}